~VERSION INFORMATION
 VERS.                          2.0 :   CWLS LOG ASCII STANDARD -VERSION 2.0
 WRAP.                           NO :   ONE LINE PER DEPTH STEP
~WELL INFORMATION
 STRT.M                       100.0 : START DEPTH
 STOP.M                       200.0 : STOP DEPTH
 STEP.M                         0.5 : STEP
 NULL.                        -999.25 : NULL VALUE
 WELL.                      WELL-1 : WELL NAME
 UWI.                       123456 : UNIQUE WELL ID
~CURVE INFORMATION
 DEPT.M                      : 1  DEPTH
 GR.GAPI                   : 2  GAMMA RAY
 RES.OHMM                  : 3  RESISTIVITY
~A  DEPTH     GR    RES
 100.0   50.5  10.2
 100.5   51.0  10.5
 101.0   52.3  10.8
 101.5   53.1  11.0
 102.0   54.0  11.2
 102.5   55.2  11.5
 103.0   56.1  11.8
 103.5   57.0  12.0
 104.0   58.2  12.3
 104.5   59.1  12.5
 105.0   60.0  12.8
 105.5   61.2  13.0
 106.0   62.1  13.3
 106.5   63.0  13.5
 107.0   64.2  13.8
 107.5   65.1  14.0
 108.0   66.0  14.3
 108.5   67.2  14.5
 109.0   68.1  14.8
 109.5   69.0  15.0
 110.0   70.2  15.3
 110.5   71.1  15.5
 111.0   72.0  15.8
 111.5   73.2  16.0
 112.0   74.1  16.3
 112.5   75.0  16.5
 113.0   76.2  16.8
 113.5   77.1  17.0
 114.0   78.0  17.3
 114.5   79.2  17.5
 115.0   80.1  17.8
 115.5   81.0  18.0
 116.0   82.2  18.3
 116.5   83.1  18.5
 117.0   84.0  18.8
 117.5   85.2  19.0
 118.0   86.1  19.3
 118.5   87.0  19.5
 119.0   88.2  19.8
 119.5   89.1  20.0
 120.0   90.0  20.3
